[
    {
        "name": "الدكتور للمفروشات",
        "phone": "01060943894",
        "location": "مرسى مطروح, وسط البلد",
        "website": "http://www.eldoctorcompany.com/"
    },
    {
        "name": "المأمون لصناعة المراتب ومستلزمات السرير فرع مدينة الرحاب",
        "phone": "01061759369",
        "location": "القاهرة, مدينة الرحاب",
        "website": "http://www.almaamoun.com/"
    },
    {
        "name": "المأمون لصناعة المراتب ومستلزمات السرير فرع شبرا",
        "phone": "01204332213",
        "location": "القاهرة, شبرا",
        "website": "http://www.almaamoun.com/"
    },
    {
        "name": "المأمون لصناعة المراتب ومستلزمات السرير فرع السادس من اكتوبر",
        "phone": "01156686166",
        "location": "الجيزة, السادس من اكتوبر",
        "website": "http://www.almaamoun.com/"
    },
    {
        "name": "المأمون لصناعة المراتب ومستلزمات السرير فرع امبابة",
        "phone": "01111974464",
        "location": "الجيزة, امبابة",
        "website": "http://www.almaamoun.com/"
    },
    {
        "name": "امريكان ماترس ايجيبت فرع القاهرة الجديدة",
        "phone": "01116111346",
        "location": "القاهرة, القاهرة الجديدة",
        "website": "http://www.americanmattress-egy.com/"
    },
    {
        "name": "مصنع الحمد للمفروشات",
        "phone": "01202056780",
        "location": "القليوبية, مدينة العبور",
        "website": "https://www.alhamdfactory-eg.com/"
    },
    {
        "name": "الحمد للتجارة والتوزيع فرع محرم بك",
        "phone": "01141182244",
        "location": "الاسكندرية, محرم بك",
        "website": "http://www.bismarck-mattresses.com/"
    },
    {
        "name": "الدورا هاوس فرع الهرم",
        "phone": "01159883952",
        "location": "الجيزة, الهرم",
        "website": "http://www.aldora-egypt.com/"
    },
    {
        "name": "لى لى لينن فرع مدينة نصر",
        "phone": "01004081396",
        "location": "القاهرة, مدينة نصر",
        "website": "http://www.lillylinen.com/"
    },
    {
        "name": "ناجح تكس فرع عباسية",
        "phone": "01205805800",
        "location": "القاهرة, عباسية",
        "website": "http://www.nagehtex.com/"
    },
    {
        "name": "سوفت للمراتب",
        "phone": "01002325400",
        "location": "القليوبية, مدينة العبور",
        "website": "https://softegypt.org/ar/"
    },
    {
        "name": "اسكاروس تكستايل فرع المعادى",
        "phone": "01019111106",
        "location": "القاهرة, المعادى",
        "website": "http://www.escaross-textile.com/"
    },
    {
        "name": "اسكاروس تكستايل فرع مدينة نصر",
        "phone": "01271125022",
        "location": "القاهرة, مدينة نصر",
        "website": "http://www.escaross-textile.com/"
    },
    {
        "name": "اسكاروس تكستايل فرع السادس من اكتوبر",
        "phone": "01221202121",
        "location": "الجيزة, السادس من اكتوبر",
        "website": "http://www.escaross-textile.com/"
    },
    {
        "name": "امريكان ماترس ايجيبت فرع مصر الجديدة",
        "phone": "01094478080",
        "location": "القاهرة, مصر الجديدة",
        "website": "http://www.americanmattress-egy.com/"
    },
    {
        "name": "عالم المفروشات",
        "phone": "01101151818",
        "location": "القليوبية, شبرا الخيمة",
        "website": "http://www.alam-almfroshat.com/"
    },
    {
        "name": "مد ويل للمفروشات",
        "phone": "01000119889",
        "location": "القاهرة, القاهرة الجديدة",
        "website": "http://www.madeweell.weebly.com/"
    },
    {
        "name": "كومفورت سليب فرع المهندسين",
        "phone": "01003334188",
        "location": "الجيزة, المهندسين",
        "website": "http://www.comfortsleep-eg.com/"
    },
    {
        "name": "كوشيز فرع القاهرة الجديدة",
        "phone": "01279591901",
        "location": "القاهرة, القاهرة الجديدة",
        "website": "https://www.coushies.com/"
    },
    {
        "name": "مصنع ليزا للمراتب والمفروشات",
        "phone": "01004114531",
        "location": "المنوفية, اشمون",
        "website": "//www.liza-mattresses.com/"
    },
    {
        "name": "فانتازيا بد فرع جمصة",
        "phone": "01095556669",
        "location": "الدقهلية, جمصة",
        "website": "https://www.fantazziabed.com/"
    },
    {
        "name": "الشركة العالمية لتصنيع المفروشات - فوربد فرع القاهرة الجديدة",
        "phone": "01024600063",
        "location": "القاهرة, القاهرة الجديدة",
        "website": "http://www.for-bed.com/"
    },
    {
        "name": "لى لى لينن فرع القاهرة الجديدة",
        "phone": "01004081396",
        "location": "القاهرة, القاهرة الجديدة",
        "website": "http://www.lillylinen.com/"
    },
    {
        "name": "الحمد للتجارة والتوزيع فرع السيوف شماعة",
        "phone": "01141182244",
        "location": "الاسكندرية, السيوف شماعة",
        "website": "http://www.bismarck-mattresses.com/"
    },
    {
        "name": "مصنع الجمال للمفروشات",
        "phone": "01145942096",
        "location": "الغربية, المحلة الكبرى",
        "website": "http://www.elgammaltex.com/"
    },
    {
        "name": "ملس فرع مدينة نصر",
        "phone": "01223468987",
        "location": "القاهرة, مدينة نصر",
        "website": "https://www.malas1.com/"
    },
    {
        "name": "نينا فاوند هوم",
        "phone": "01000706300",
        "location": "القاهرة, مصر الجديدة",
        "website": "https://ninafoundhome.com/"
    },
    {
        "name": "نيلنز فرع السادس من اكتوبر",
        "phone": "01000994827",
        "location": "الجيزة, السادس من اكتوبر",
        "website": "http://www.nillens.com/"
    },
    {
        "name": "سلامى فرع المنصورة",
        "phone": "01020304080",
        "location": "الدقهلية, المنصورة",
        "website": "http://www.salamicollection.com/"
    },
    {
        "name": "مصنع سلمى للمفروشات",
        "phone": "01009630086",
        "location": "الغربية, المحلة الكبرى",
        "website": "http://www.salmabedding.com/"
    },
    {
        "name": "سيرا للمفروشات فرع باكوس",
        "phone": "01011443294",
        "location": "الاسكندرية, باكوس",
        "website": "http://www.seraegypt.com/"
    },
    {
        "name": "سيرا للمفروشات فرع منوف",
        "phone": "01552667465",
        "location": "المنوفية, منوف",
        "website": "http://www.seraegypt.com/"
    },
    {
        "name": "فانتازيا بد فرع دمياط",
        "phone": "01090021888",
        "location": "دمياط, دمياط",
        "website": "https://www.fantazziabed.com/"
    },
    {
        "name": "سيرا للمفروشات فرع الزقازيق",
        "phone": "01098511072",
        "location": "الشرقية, الزقازيق",
        "website": "http://www.seraegypt.com/"
    },
    {
        "name": "فانتازيا بد فرع بلقاس",
        "phone": "01017666497",
        "location": "الدقهلية, بلقاس",
        "website": "https://www.fantazziabed.com/"
    },
    {
        "name": "فانتازيا بد فرع بلقاس",
        "phone": "01017666542",
        "location": "الدقهلية, بلقاس",
        "website": "https://www.fantazziabed.com/"
    },
    {
        "name": "سيرا للمفروشات فرع مدينة العبور",
        "phone": "01017686999",
        "location": "القليوبية, مدينة العبور",
        "website": "http://www.seraegypt.com/"
    },
    {
        "name": "سيرا للمفروشات فرع شبرا الخيمة",
        "phone": "01013146588",
        "location": "القليوبية, شبرا الخيمة",
        "website": "http://www.seraegypt.com/"
    },
    {
        "name": "فانتازيا بد فرع بيلا",
        "phone": "01060004755",
        "location": "كفر الشيخ, بيلا",
        "website": "https://www.fantazziabed.com/"
    },
    {
        "name": "فانتازيا بد فرع الحامول",
        "phone": "01060003441",
        "location": "كفر الشيخ, الحامول",
        "website": "https://www.fantazziabed.com/"
    },
    {
        "name": "شاتكس هوم فرع القاهرة الجديدة",
        "phone": "01271488816",
        "location": "القاهرة, القاهرة الجديدة",
        "website": "http://www.shatexhome.com/"
    },
    {
        "name": "الشيخ لصناعة الاقمشة والوبريات والملابس الجاهزة فرع الازهر",
        "phone": "01000053172",
        "location": "القاهرة, الازهر",
        "website": "http://www.elsheikhtex.com/"
    },
    {
        "name": "فاروس للاستيراد والتصدير",
        "phone": "01223838318",
        "location": "الاسكندرية, الجمرك",
        "website": "http://pharosegypt.com/"
    },
    {
        "name": "المصرية فوم للاسفنج والمراتب",
        "phone": "01050044625",
        "location": "القليوبية, مدينة العبور",
        "website": "https://www.egyptianfoam.com/"
    },
    {
        "name": "محمد عبد الغفار للمفروشات",
        "phone": "01068444480",
        "location": "الدقهلية, المنصورة",
        "website": "https://www.facebook.com/MohamedAbdulGhaffarEst/"
    },
    {
        "name": "عادل للمفروشات",
        "phone": "01287184456",
        "location": "الاسكندرية, ميامى",
        "website": null
    },
    {
        "name": "قصر العروسة",
        "phone": "01096196594",
        "location": "كفر الشيخ, الرياض",
        "website": null
    },
    {
        "name": "الحسينى للمفروشات",
        "phone": "01122296430",
        "location": "دمياط, دمياط",
        "website": "http://www.facebook.com/elhoseny.textile"
    },
    {
        "name": "مفروشات حمادة",
        "phone": "01003084328",
        "location": "القاهرة, مدينة نصر",
        "website": null
    },
    {
        "name": "الجوهرى للمفروشات فرع الازهر",
        "phone": "01001515925",
        "location": "القاهرة, الازهر",
        "website": null
    },
    {
        "name": "الامانة للمفروشات",
        "phone": "01222571751",
        "location": "الجيزة, امبابة",
        "website": null
    },
    {
        "name": "الخواجة للمفروشات فرع المعادى",
        "phone": "01276482996",
        "location": "القاهرة, المعادى",
        "website": "https://www.facebook.com/elkhawagafabrics"
    },
    {
        "name": "هنا هوم للمفروشات",
        "phone": "01020748989",
        "location": "القاهرة, مدينة نصر",
        "website": null
    },
    {
        "name": "مفروشات رحمة بلازا",
        "phone": "01221717283",
        "location": "المنوفية, منوف",
        "website": null
    },
    {
        "name": "مفروشات هبة",
        "phone": "01283173948",
        "location": "القليوبية, شبرا الخيمة",
        "website": null
    },
    {
        "name": "سنتر الرحمة",
        "phone": "01148020450",
        "location": "الفيوم, ابشواى",
        "website": null
    },
    {
        "name": "هاى للمفروشات",
        "phone": "01001054384",
        "location": "دمياط, دمياط",
        "website": null
    },
    {
        "name": "مفروشات الرومانى",
        "phone": "01220635767",
        "location": "القاهرة, عزبة النخل",
        "website": null
    },
    {
        "name": "جيفارا المعرض الدائم لمفروشات العروسة فرع القاهرة الجديدة",
        "phone": "01120000137",
        "location": "القاهرة, القاهرة الجديدة",
        "website": "http://www.facebook.com/ggalary"
    },
    {
        "name": "فراشة حسين الصعيدى",
        "phone": "01007282382",
        "location": "القليوبية, شبرا الخيمة",
        "website": null
    },
    {
        "name": "مول تكس",
        "phone": "01004051611",
        "location": "المنوفية, شبين الكوم",
        "website": null
    },
    {
        "name": "نور العالم للمفروشات",
        "phone": "01224649707",
        "location": "القاهرة, عين شمس الشرقية",
        "website": null
    },
    {
        "name": "سنتر البسطويسى للمفروشات",
        "phone": "01147822891",
        "location": "الغربية, المحلة الكبرى",
        "website": null
    },
    {
        "name": "وينى",
        "phone": "01221409575",
        "location": "الجيزة, فيصل",
        "website": null
    },
    {
        "name": "مفروشات مودرن هوم",
        "phone": "01113760174",
        "location": "الجيزة, بولاق الدكرور",
        "website": null
    },
    {
        "name": "قاضى الهوى",
        "phone": "01145772828",
        "location": "الفيوم, وسط البلد",
        "website": null
    },
    {
        "name": "مفروشات زهران",
        "phone": "01062082962",
        "location": "القليوبية, قليوب",
        "website": null
    },
    {
        "name": "شيماء وجهاد",
        "phone": "01117294000",
        "location": "الجيزة, فيصل",
        "website": null
    },
    {
        "name": "الدولى جروب للمفروشات",
        "phone": "01222321207",
        "location": "الجيزة, الوراق",
        "website": null
    },
    {
        "name": "القبطان",
        "phone": "01092330183",
        "location": "كفر الشيخ, بيلا",
        "website": null
    },
    {
        "name": "التوحيد للمفروشات",
        "phone": "01063445217",
        "location": "القاهرة, مدينة نصر",
        "website": null
    },
    {
        "name": "المداح فرع المحلة الكبرى",
        "phone": "01148031438",
        "location": "الغربية, المحلة الكبرى",
        "website": null
    },
    {
        "name": "شروق العقاد",
        "phone": "01069037098",
        "location": "القاهرة, الازهر",
        "website": null
    },
    {
        "name": "شوتكس",
        "phone": "01001095461",
        "location": "القاهرة, مدينة نصر",
        "website": null
    },
    {
        "name": "سنتر محمد زيدان",
        "phone": "01015948565",
        "location": "الشرقية, كفر صقر",
        "website": null
    },
    {
        "name": "المصطفى فرع شبين الكوم",
        "phone": "01003816975",
        "location": "المنوفية, شبين الكوم",
        "website": null
    },
    {
        "name": "البيت السعيد",
        "phone": "01270790003",
        "location": "القاهرة, الازهر",
        "website": null
    }
]